name,lat,lon,value
Shanghai,31.230391,121.473701,
Beijing,39.904202,116.407394,
Delhi,28.70406,77.102493,
Lagos,6.524379,3.379206,
Tianjin,39.343357,117.361649,
Karachi,24.860735,67.001137,
Istanbul,41.00824,28.978359,
Tokyo,35.689487,139.691711,
Guangzhou,23.12911,113.264381,